[{"name":"Legal Test Kitchen","location":[42.36469814369873,-71.02211284976174],"category":"Seafood Restaurant","checkinCount":5368,"userCount":3835,"tipCount":81,"address":"1 Harborside Dr., Terminal A","url":"http://www.legalseafoods.com/","zip":"02128"},{"name":"Downeast Cider House","location":[42.36427050496317,-71.0328994929364],"category":"Brewery","checkinCount":413,"userCount":258,"tipCount":8,"address":"265 Marginal Street","url":"http://downeastcider.com","zip":"02128"},{"name":"Legal Sea Foods","location":[42.36150278903039,-71.01722687432121],"category":"Seafood Restaurant","checkinCount":6082,"userCount":4615,"tipCount":77,"address":"1 Harborside Dr., Terminal B","url":"http://www.legalseafoods.com/","zip":"02128"},{"name":"Boston Beer Works","location":[42.36747284225555,-71.01548330201372],"category":"Brewery","checkinCount":8663,"userCount":6462,"tipCount":133,"address":"Logan Airport","url":"http://www.beerworks.net","zip":"02128"},{"name":"Eddie C's","location":[42.369791023133516,-71.03910933772308],"category":"Bar","checkinCount":1074,"userCount":231,"tipCount":11,"address":"34 Maverick Sq","zip":"02128"},{"name":"Renegade's Pub","location":[42.386825,-71.006817],"category":"Pub","checkinCount":121,"userCount":36,"tipCount":0,"zip":"02128"},{"name":"Kelley's Square Pub","location":[42.37610165498625,-71.03572215393153],"category":"Pub","checkinCount":1795,"userCount":557,"tipCount":22,"address":"84 Bennington St","url":"http://www.kelleyssquarepub.com","zip":"02128"},{"name":"Legal Sea Foods","location":[42.366638508004385,-71.01644032925898],"category":"Seafood Restaurant","checkinCount":4728,"userCount":3540,"tipCount":57,"address":"1 Harborside Dr., Terminal C","url":"http://www.legalseafoods.com/","zip":"02128"},{"name":"Harpoon Tap Room","location":[42.363969599607465,-71.02484956722306],"category":"Bar","checkinCount":2446,"userCount":2141,"tipCount":41,"url":"http://www.harpoonbrewery.com","zip":"02128"},{"name":"Café Gigú","location":[42.372749915288914,-71.03924996370205],"category":"Other Nightlife","checkinCount":193,"userCount":90,"tipCount":8,"address":"102 Meridian St","zip":"02128"},{"name":"Lucky's Lounge","location":[42.36461652792287,-71.02159008375052],"category":"Bar","checkinCount":1875,"userCount":1502,"tipCount":35,"address":"at Terminal A","zip":"02128"},{"name":"Jeveli \"Terminal J Lounge\"","location":[42.37941637753233,-71.02748064365296],"category":"Italian Restaurant","checkinCount":2090,"userCount":641,"tipCount":22,"address":"387 Chelsea St","url":"http://www.jeveli.com/","zip":"02128"},{"name":"Cisco Brew Pub of Nantucket","location":[42.362958884684474,-71.01748913593073],"category":"Brewery","checkinCount":1934,"userCount":1686,"tipCount":42,"address":"1 Harborside Drive (Terminal B)","url":"http://ciscobrewers.com","zip":"02128"},{"name":"Maverick Marketplace Cafe","location":[42.3698369274328,-71.03800975004681],"category":"Café","checkinCount":377,"userCount":160,"tipCount":8,"address":"154 Maverick St","url":"http://www.maverickmarketplacecafe.com","zip":"02128"},{"name":"Barney's Grill","location":[42.376643263316076,-71.03388335002775],"category":"Colombian Restaurant","checkinCount":96,"userCount":18,"tipCount":1,"address":"299 Havre St","zip":"02128"},{"name":"Legal C Bar","location":[42.36269215662377,-71.01810725875123],"category":"Seafood Restaurant","checkinCount":2399,"userCount":1888,"tipCount":42,"address":"1 Harborside Dr., Terminal B","url":"http://www.legalseafoods.com","zip":"02128"},{"name":"AO Time Clock","location":[42.366911199048864,-71.01730153541767],"category":"Dive Bar","checkinCount":67,"userCount":11,"tipCount":1,"address":"Terminal C","zip":"02128"},{"name":"Jerry Remy's Sports Bar & Grill","location":[42.36625513110149,-71.01669409430859],"category":"Sports Bar","checkinCount":2560,"userCount":2100,"tipCount":41,"address":"Terminal C","url":"http://jerryremysseaport.com","zip":"02128"},{"name":"Vino Volo","location":[42.3631066702906,-71.02467748486987],"category":"Wine Bar","checkinCount":429,"userCount":328,"tipCount":6,"address":"Terminal A","url":"https://www.vinovolo.com","zip":"02128"},{"name":"Starbucks","location":[42.39202929,-71.01320133],"category":"Coffee Shop","checkinCount":4977,"userCount":1082,"tipCount":20,"address":"430 McClellan Hwy","url":"http://www.starbucks.com/store/7561/","zip":"02128"},{"name":"Santarpio's Pizza","location":[42.372815954043055,-71.03534470084819],"category":"Pizza Place","checkinCount":5290,"userCount":3299,"tipCount":99,"address":"111 Chelsea St","url":"http://santarpiospizza.com","zip":"02128"},{"name":"Legal Test Kitchen","location":[42.36469814369873,-71.02211284976174],"category":"Seafood Restaurant","checkinCount":5368,"userCount":3835,"tipCount":81,"address":"1 Harborside Dr., Terminal A","url":"http://www.legalseafoods.com/","zip":"02128"},{"name":"Wahlburgers","location":[42.36716427467126,-71.01656393277317],"category":"Burger Joint","checkinCount":958,"userCount":760,"tipCount":14,"address":"1 Harborside Dr","zip":"02128"},{"name":"Legal Sea Foods","location":[42.36150278903039,-71.01722687432121],"category":"Seafood Restaurant","checkinCount":6082,"userCount":4615,"tipCount":77,"address":"1 Harborside Dr., Terminal B","url":"http://www.legalseafoods.com/","zip":"02128"},{"name":"Boston Beer Works","location":[42.36747284225555,-71.01548330201372],"category":"Brewery","checkinCount":8663,"userCount":6462,"tipCount":133,"address":"Logan Airport","url":"http://www.beerworks.net","zip":"02128"},{"name":"McDonald's","location":[42.37445039310997,-71.04025353561155],"category":"Fast Food Restaurant","checkinCount":566,"userCount":195,"tipCount":8,"address":"178 Border St","url":"http://mcdonalds.com","zip":"02128"},{"name":"Starbucks","location":[42.36593602252336,-71.01530306326703],"category":"Coffee Shop","checkinCount":4985,"userCount":3167,"tipCount":24,"address":"Gate 26, Terminal C","url":"https://www.starbucks.com/store-locator/store/8151/","zip":"02128"},{"name":"Renegade's Pub","location":[42.386825,-71.006817],"category":"Pub","checkinCount":121,"userCount":36,"tipCount":0,"zip":"02128"}]