[{"name":"Americano Espresso Bar","address":"155 Meridian","desc":"Eating & Drinking w/ Take Out","location":[42.373853,-71.038885]},{"name":"Burger King","address":"1 Maverick","desc":"Eating & Drinking w/ Take Out","location":[42.37165,-71.042779]},{"name":"CAFE NAPOLI","address":"81 Chelsea","desc":"Eating & Drinking","location":[42.371833,-71.036223]},{"name":"Courtyard Marriott Logan Airport","address":"225 William F McClellan","desc":"Eating & Drinking","location":[42.38725,-71.01656]},{"name":"Craft Table & Bar","address":"107 Porter","desc":"Eating & Drinking","location":[42.37299,-71.036155]},{"name":"Dunkin Donuts","address":"100 Service","desc":"Eating & Drinking w/ Take Out","location":[42.36914,-71.029816]},{"name":"Dunkin Donuts","address":"400 Terminal","desc":"Eating & Drinking w/ Take Out","location":[42.366875,-71.020905]},{"name":"ELITE DONUT SHOP","address":"350 Bennington","desc":"Eating & Drinking w/ Take Out","location":[42.379626,-71.026928]},{"name":"Harborside Cafe","address":"1 Harborside","desc":"Eating & Drinking","location":[42.363408,-71.025698]},{"name":"McDonald's","address":"178 Border","desc":"Eating & Drinking w/ Take Out","location":[42.37445,-71.04028]},{"name":"Mikes Vending L L C @ Constitution Beach","address":"4 Barnes","desc":"Eating & Drinking w/ Take Out","location":[42.38588,-71.00682]}]