[{"name":"Santarpio's Pizza","location":[42.372815954043055,-71.03534470084819],"category":"Pizza Place","checkinCount":5275,"userCount":3293,"tipCount":99,"address":"111 Chelsea St","url":"http://santarpiospizza.com","rating":9,"ratingColor":"00B551","ratingSignals":303,"zip":"02128"},{"name":"La Hacienda","location":[42.373964620170604,-71.03902717880581],"category":"Latin American Restaurant","checkinCount":883,"userCount":382,"tipCount":11,"address":"150 Meridian St","url":"http://www.lahaciendaboston.com","rating":8.5,"ratingColor":"73CF42","ratingSignals":71,"zip":"02128"},{"name":"Meridian Food Market","location":[42.37318190811691,-71.0389363012334],"category":"Deli / Bodega","checkinCount":326,"userCount":141,"tipCount":6,"address":"121 Meridian St","url":"http://meridianfoodmarket.com","rating":8.4,"ratingColor":"73CF42","ratingSignals":20,"zip":"02128"},{"name":"Italian Express Pizzeria","location":[42.36722865893777,-71.03579487946774],"category":"Pizza Place","checkinCount":1196,"userCount":492,"tipCount":35,"address":"336 Sumner St","url":"http://www.italianexpresspizzeria.com","rating":8.9,"ratingColor":"73CF42","ratingSignals":72,"zip":"02128"},{"name":"Maverick Marketplace Cafe","location":[42.3698369274328,-71.03800975004681],"category":"Café","checkinCount":373,"userCount":159,"tipCount":8,"address":"154 Maverick St","url":"http://www.maverickmarketplacecafe.com","rating":8.4,"ratingColor":"73CF42","ratingSignals":28,"zip":"02128"},{"name":"Roys Cold Cuts & Pizzeria","location":[42.37543054933973,-71.03485318245903],"category":"Sandwich Place","checkinCount":205,"userCount":76,"tipCount":6,"address":"198 Marion St","url":"http://royscoldcuts.net","rating":8.6,"ratingColor":"73CF42","ratingSignals":15,"zip":"02128"},{"name":"Rino's","location":[42.378267983498624,-71.03194032162249],"category":"Italian Restaurant","checkinCount":1561,"userCount":1082,"tipCount":68,"address":"257 Saratoga St","url":"http://www.rinosplace.com","rating":9,"ratingColor":"00B551","ratingSignals":146,"zip":"02128"},{"name":"Angela's Café","location":[42.37863390006418,-71.03493698022284],"category":"Mexican Restaurant","checkinCount":1764,"userCount":717,"tipCount":54,"address":"131 Lexington St","url":"http://angelascafeboston.com","rating":8.5,"ratingColor":"73CF42","ratingSignals":123,"zip":"02128"},{"name":"KO Pies at the Shipyard","location":[42.36406982636888,-71.03168122769519],"category":"Australian Restaurant","checkinCount":1920,"userCount":964,"tipCount":34,"address":"256 Marginal St","url":"http://kocateringandpies.com","rating":8.9,"ratingColor":"73CF42","ratingSignals":132,"zip":"02128"},{"name":"Taquería Jalisco","location":[42.378841586091724,-71.02826574357424],"category":"Mexican Restaurant","checkinCount":537,"userCount":282,"tipCount":15,"address":"293 Bennington St","rating":8.7,"ratingColor":"73CF42","ratingSignals":43,"zip":"02128"},{"name":"Rincón Limeño Restaurant","location":[42.37992871017883,-71.02705522666606],"category":"Peruvian Restaurant","checkinCount":617,"userCount":347,"tipCount":22,"address":"409 Chelsea St","url":"http://rinconlimenorestaurant.com","rating":8.5,"ratingColor":"73CF42","ratingSignals":61,"zip":"02128"}]